[{
  "_id": {
    "$oid": "672ab0534a29b0893830aa62"
  },
  "place_id": "672ab0504a29b0893830aa5a",
  "toilet_name": "Witon Shopping Center",
  "toilet_description": "Near An Post Bishopstown",
  "location": {
    "type": "Point",
    "coordinates": [
      -8.5080977,
      51.8806528
    ]
  },
  "type": "free",
  "review_id": [],
  "price": "free",
  "toilet_paper_accessibility": true,
  "__v": 0
},
{
  "_id": {
    "$oid": "672ac0144a29b0893830aa8d"
  },
  "place_id": "672abf0f4a29b0893830aa76",
  "toilet_name": "Noodlee",
  "toilet_description": "Free for customers only",
  "location": {
    "type": "Point",
    "coordinates": [
      -8.4950022,
      51.8944792
    ]
  },
  "type": "free for customer",
  "review_id": [],
  "price": "free for customer",
  "toilet_paper_accessibility": true,
  "__v": 0
},
{
  "_id": {
    "$oid": "672ac0154a29b0893830aa93"
  },
  "place_id": "672abf3d4a29b0893830aa79",
  "toilet_name": "Western Gateway Building",
  "toilet_description": "In the center of ground floor",
  "location": {
    "type": "Point",
    "coordinates": [
      -8.499968599999999,
      51.893372
    ]
  },
  "type": "free",
  "review_id": [],
  "price": "free",
  "toilet_paper_accessibility": true,
  "__v": 0
},
{
  "_id": {
    "$oid": "672ac0154a29b0893830aa99"
  },
  "place_id": "672abf8f4a29b0893830aa7c",
  "toilet_name": "Costa Coffee",
  "toilet_description": "Turners Cross Retail Park, Kinsale Rd, Cork",
  "location": {
    "type": "Point",
    "coordinates": [
      -8.466261099999999,
      51.8804035
    ]
  },
  "type": "free for customer",
  "review_id": [],
  "price": "free for customer",
  "toilet_paper_accessibility": false,
  "__v": 0
},
{
  "_id": {
    "$oid": "672ac0154a29b0893830aa9f"
  },
  "place_id": "672abfb14a29b0893830aa7f",
  "toilet_name": "T12 CPR4",
  "toilet_description": "Bishopstown Rd, Bishopstown, Cork",
  "location": {
    "type": "Point",
    "coordinates": [
      -8.5131344,
      51.8805631
    ]
  },
  "type": "free for customer",
  "review_id": [],
  "price": "free for customer",
  "toilet_paper_accessibility": true,
  "__v": 0
},
{
  "_id": {
    "$oid": "672ac0164a29b0893830aaa5"
  },
  "place_id": "672abfcf4a29b0893830aa82",
  "toilet_name": "Costa Coffee Mount Agnes Road",
  "toilet_description": "Churchfield Rd, Cork",
  "location": {
    "type": "Point",
    "coordinates": [
      -8.489364499999999,
      51.9120935
    ]
  },
  "type": "free for customer",
  "review_id": [],
  "price": "free for customer",
  "toilet_paper_accessibility": true,
  "__v": 0
},
{
  "_id": {
    "$oid": "672ac0174a29b0893830aaab"
  },
  "place_id": "672ac0124a29b0893830aa85",
  "toilet_name": "Costa Coffee",
  "toilet_description": "City East Retail Park, Ballysimon Rd, Garryglass, Limerick",
  "location": {
    "type": "Point",
    "coordinates": [
      -8.5745919,
      52.6492502
    ]
  },
  "type": "free for customer",
  "review_id": [],
  "price": "free for customer",
  "toilet_paper_accessibility": true,
  "__v": 0
},
{
  "_id": {
    "$oid": "672ac0db4a29b0893830aac9"
  },
  "place_id": "672ac08d4a29b0893830aabe",
  "toilet_name": "Costa Coffee",
  "toilet_description": "Eastgate Retail Park, Little Island, Co. Cork",
  "location": {
    "type": "Point",
    "coordinates": [
      -8.3571828,
      51.9041673
    ]
  },
  "type": "free for customer",
  "review_id": [],
  "price": "free for customer",
  "toilet_paper_accessibility": true,
  "__v": 0
},
{
  "_id": {
    "$oid": "672ac0db4a29b0893830aacf"
  },
  "place_id": "672ac0c94a29b0893830aac1",
  "toilet_name": "Mahon Point Shopping Centre",
  "toilet_description": "Mahon Link Road, Mahon, Cork",
  "location": {
    "type": "Point",
    "coordinates": [
      -8.3962614,
      51.8859194
    ]
  },
  "type": "free",
  "review_id": [],
  "price": "free",
  "toilet_paper_accessibility": true,
  "__v": 0
},
{
  "_id": {
    "$oid": "672ac1bd4a29b0893830aaf4"
  },
  "place_id": "672ac1394a29b0893830aae6",
  "toilet_name": "Tesco Superstore",
  "toilet_description": "Located on the left side of the supermarket entrance inside the building, following the signs on the ceiling",
  "location": {
    "type": "Point",
    "coordinates": [
      -8.4747623,
      51.8997074
    ]
  },
  "type": "free",
  "review_id": [],
  "price": "free",
  "toilet_paper_accessibility": true,
  "__v": 0
},
{
  "_id": {
    "$oid": "672ac1bd4a29b0893830aafa"
  },
  "place_id": "672ac1684a29b0893830aae9",
  "toilet_name": "Zambrero",
  "toilet_description": "Orchard Gardens, Dennehys Cross, Cork",
  "location": {
    "type": "Point",
    "coordinates": [
      -8.5062283,
      51.88915290000001
    ]
  },
  "type": "free for customer",
  "review_id": [],
  "price": "free for customer",
  "toilet_paper_accessibility": true,
  "__v": 0
},
{
  "_id": {
    "$oid": "672ac1be4a29b0893830ab00"
  },
  "place_id": "672ac1ba4a29b0893830aaec",
  "toilet_name": "Centra Victoria Cross (unavailable)",
  "toilet_description": "Currently out of order",
  "location": {
    "type": "Point",
    "coordinates": [
      -8.5037416,
      51.8926149
    ]
  },
  "type": "free for customer",
  "review_id": [],
  "price": "free for customer",
  "toilet_paper_accessibility": true,
  "__v": 0
},
{
  "_id": {
    "$oid": "672ac3354a29b0893830ab2c"
  },
  "place_id": "672ac1f44a29b0893830ab1d",
  "toilet_name": "The English Market",
  "toilet_description": "might be crowded",
  "location": {
    "type": "Point",
    "coordinates": [
      -8.4748223,
      51.8976504
    ]
  },
  "type": "paid",
  "review_id": [],
  "price": "0.2 Euro",
  "toilet_paper_accessibility": false,
  "__v": 0
},
{
  "_id": {
    "$oid": "672ac3364a29b0893830ab32"
  },
  "place_id": "672ac2284a29b0893830ab20",
  "toilet_name": "Dunnes Stores",
  "toilet_description": "take lift to the top floor",
  "location": {
    "type": "Point",
    "coordinates": [
      -8.4716598,
      51.8989074
    ]
  },
  "type": "free",
  "review_id": [],
  "price": "free",
  "toilet_paper_accessibility": true,
  "__v": 0
},
{
  "_id": {
    "$oid": "672ac3364a29b0893830ab38"
  },
  "place_id": "672ac3324a29b0893830ab24",
  "toilet_name": "Public Toilets",
  "toilet_description": "might be crowded",
  "location": {
    "type": "Point",
    "coordinates": [
      -8.2950552,
      51.8504062
    ]
  },
  "type": "free",
  "review_id": [],
  "price": "free",
  "toilet_paper_accessibility": true,
  "__v": 0
},
{
  "_id": {
    "$oid": "672ac48f4a29b0893830ab69"
  },
  "place_id": "672ac3744a29b0893830ab5b",
  "toilet_name": "Blackbird Bar, Ballycotton",
  "toilet_description": "Free for customer",
  "location": {
    "type": "Point",
    "coordinates": [
      -8.013878,
      51.830633
    ]
  },
  "type": "free for customer",
  "review_id": [],
  "price": "free for customer",
  "toilet_paper_accessibility": true,
  "__v": 0
},
{
  "_id": {
    "$oid": "672ac4904a29b0893830ab6f"
  },
  "place_id": "672ac3f24a29b0893830ab5e",
  "toilet_name": "Ryans Pub Cobh",
  "toilet_description": "Free for customers",
  "location": {
    "type": "Point",
    "coordinates": [
      -8.2949474,
      51.8504947
    ]
  },
  "type": "free for customer",
  "review_id": [],
  "price": "free for customer",
  "toilet_paper_accessibility": false,
  "__v": 0
},
{
  "_id": {
    "$oid": "672ac4914a29b0893830ab75"
  },
  "place_id": "672ac48d4a29b0893830ab61",
  "toilet_name": "The Lough Café",
  "toilet_description": "1b The, Lough Rd, The Lough, Cork, T12 YR99",
  "location": {
    "type": "Point",
    "coordinates": [
      -8.4844336,
      51.8895417
    ]
  },
  "type": "free for customer",
  "review_id": [],
  "price": "free for customer",
  "toilet_paper_accessibility": true,
  "__v": 0
},
{
  "_id": {
    "$oid": "672ac5324a29b0893830aba6"
  },
  "place_id": "672ac5294a29b0893830ab9e",
  "toilet_name": "Munster Technological University",
  "toilet_description": "There are toilets in every building",
  "location": {
    "type": "Point",
    "coordinates": [
      -8.53082,
      51.8821
    ]
  },
  "type": "free",
  "review_id": [],
  "price": "free",
  "toilet_paper_accessibility": false,
  "__v": 0
},
{
  "_id": {
    "$oid": "672ac7cf4a29b0893830abdc"
  },
  "place_id": "672ac7ac4a29b0893830abd1",
  "toilet_name": "Thurles Shopping Centre",
  "toilet_description": "on the first floor",
  "location": {
    "type": "Point",
    "coordinates": [
      -7.811545400000001,
      52.67510679999999
    ]
  },
  "type": "free",
  "review_id": [],
  "price": "free",
  "toilet_paper_accessibility": false,
  "__v": 0
},
{
  "_id": {
    "$oid": "672ac8e04a29b0893830ac3f"
  },
  "place_id": "672ac86d4a29b0893830ac09",
  "toilet_name": "Barry's SuperValu Thurles",
  "toilet_description": "Friar St, Thurles Townparks, Thurles, Co. Tipperary, ",
  "location": {
    "type": "Point",
    "coordinates": [
      -7.818456,
      52.6782373
    ]
  },
  "type": "free",
  "review_id": [],
  "price": "free",
  "toilet_paper_accessibility": true,
  "__v": 0
},
{
  "_id": {
    "$oid": "672ac8e14a29b0893830ac45"
  },
  "place_id": "672ac8b74a29b0893830ac37",
  "toilet_name": "Marina Market",
  "toilet_description": "might be crowded",
  "location": {
    "type": "Point",
    "coordinates": [
      -8.4518854,
      51.8988267
    ]
  },
  "type": "free",
  "review_id": [],
  "price": "free",
  "toilet_paper_accessibility": false,
  "__v": 0
},
{
  "_id": {
    "$oid": "672ac9af4a29b0893830acad"
  },
  "place_id": "672ac9ac4a29b0893830aca5",
  "toilet_name": "Ballyvolane Shopping Centre",
  "toilet_description": "Ballyvolane, Cork, T23 VEY8",
  "location": {
    "type": "Point",
    "coordinates": [
      -8.4477625,
      51.9163297
    ]
  },
  "type": "free",
  "review_id": [],
  "price": "free",
  "toilet_paper_accessibility": false,
  "__v": 0
},
{
  "_id": {
    "$oid": "672acb174a29b0893830aceb"
  },
  "place_id": "672acab24a29b0893830ace0",
  "toilet_name": "Douglas Court Shopping Centre",
  "toilet_description": "Douglas Court Shopping Centre, Cork T12 HK5D",
  "location": {
    "type": "Point",
    "coordinates": [
      -8.431557,
      51.8784465
    ]
  },
  "type": "free",
  "review_id": [],
  "price": "free",
  "toilet_paper_accessibility": true,
  "__v": 0
},
{
  "_id": {
    "$oid": "672acb194a29b0893830acf1"
  },
  "place_id": "672acaf04a29b0893830ace3",
  "toilet_name": "Blackpool Shopping Centre",
  "toilet_description": "Blackpool Shopping Center, Blackpool, Cork",
  "location": {
    "type": "Point",
    "coordinates": [
      -8.4714678,
      51.9148381
    ]
  },
  "type": "free",
  "review_id": [],
  "price": "free",
  "toilet_paper_accessibility": false,
  "__v": 0
},
{
  "_id": {
    "$oid": "672acbe84a29b0893830ad30"
  },
  "place_id": "672acbe34a29b0893830ad28",
  "toilet_name": "Fota Wildlife Park",
  "toilet_description": "The toilets are spread out across the park",
  "location": {
    "type": "Point",
    "coordinates": [
      -8.3069536,
      51.89087379999999
    ]
  },
  "type": "free for customer",
  "review_id": [],
  "price": "free for customer",
  "toilet_paper_accessibility": false,
  "__v": 0
},
{
  "_id": {
    "$oid": "672accec4a29b0893830ad71"
  },
  "place_id": "672accea4a29b0893830ad69",
  "toilet_name": "Old Oak",
  "toilet_description": "113 Oliver Plunkett St, Centre, Cork, T12 PY8A",
  "location": {
    "type": "Point",
    "coordinates": [
      -8.4700185,
      51.8981685
    ]
  },
  "type": "free for customer",
  "review_id": [],
  "price": "free for customer",
  "toilet_paper_accessibility": true,
  "__v": 0
},
{
  "_id": {
    "$oid": "672aceb94a29b0893830adb9"
  },
  "place_id": "672acdca4a29b0893830adac",
  "toilet_name": "The Spaniard Inn",
  "toilet_description": "Scilly, Kinsale, Co. Cork",
  "location": {
    "type": "Point",
    "coordinates": [
      -8.5168716,
      51.7050153
    ]
  },
  "type": "free for customer",
  "review_id": [],
  "price": "free for customer",
  "toilet_paper_accessibility": true,
  "__v": 0
},
{
  "_id": {
    "$oid": "672aceba4a29b0893830adbf"
  },
  "place_id": "672aceb64a29b0893830adb1",
  "toilet_name": "Cosy Café",
  "toilet_description": "Church Square, Town-Plots, Kinsale, Co. Cork, P17 PK21",
  "location": {
    "type": "Point",
    "coordinates": [
      -8.5258532,
      51.7061791
    ]
  },
  "type": "free for customer",
  "review_id": [],
  "price": "free for customer",
  "toilet_paper_accessibility": true,
  "__v": 0
},
{
  "_id": {
    "$oid": "672bfc624a29b0893830af45"
  },
  "place_id": "672bfc5f4a29b0893830af3d",
  "toilet_name": "KFC Cork - East Gate Retail Park",
  "toilet_description": "located on the left side after entering, customers only",
  "location": {
    "type": "Point",
    "coordinates": [
      -8.354104099999999,
      51.9049925
    ]
  },
  "type": "free for customer",
  "review_id": [],
  "price": "free for customer",
  "toilet_paper_accessibility": true,
  "__v": 0
},
{
  "_id": {
    "$oid": "672bfffe4a29b0893830af8e"
  },
  "place_id": "672bfe334a29b0893830af86",
  "toilet_name": "Spar",
  "toilet_description": "Free for customer",
  "location": {
    "type": "Point",
    "coordinates": [
      -8.3581535,
      51.902912
    ]
  },
  "type": "free for customer",
  "review_id": [],
  "price": "free for customer",
  "toilet_paper_accessibility": true,
  "__v": 0
},
{
  "_id": {
    "$oid": "672c12934a29b0893830b01a"
  },
  "place_id": "672c12904a29b0893830b012",
  "toilet_name": "Merchant's Quay Shopping Centre",
  "toilet_description": "on the first floor",
  "location": {
    "type": "Point",
    "coordinates": [
      -8.4694712,
      51.8999604
    ]
  },
  "type": "free",
  "review_id": [],
  "price": "free",
  "toilet_paper_accessibility": true,
  "__v": 0
},
{
  "_id": {
    "$oid": "672c20514a29b0893830b067"
  },
  "place_id": "672c20474a29b0893830b05f",
  "toilet_name": "Cobh Heritage Centre",
  "toilet_description": "Usually for customer use",
  "location": {
    "type": "Point",
    "coordinates": [
      -8.2989737,
      51.8489477
    ]
  },
  "type": "free for customer",
  "review_id": [],
  "price": "free for customer",
  "toilet_paper_accessibility": true,
  "__v": 0
},
{
  "_id": {
    "$oid": "6732a65c4a29b0893830b59f"
  },
  "place_id": "6732a6544a29b0893830b597",
  "toilet_name": "MacDonagh Junction Shopping Centre",
  "toilet_description": "Several toilets are available inside",
  "location": {
    "type": "Point",
    "coordinates": [
      -7.244462,
      52.6552401
    ]
  },
  "type": "free",
  "review_id": [],
  "price": "free",
  "toilet_paper_accessibility": true,
  "__v": 0
},
{
  "_id": {
    "$oid": "6732a7264a29b0893830b5a5"
  },
  "place_id": "672c42984a29b0893830b1d3",
  "toilet_name": "Passage West Maritime Museum",
  "toilet_description": "It’s a free toilet beside museum ",
  "location": {
    "type": "Point",
    "coordinates": [
      -8.336422299999999,
      51.8722989
    ]
  },
  "type": "free",
  "review_id": [],
  "price": "free",
  "toilet_paper_accessibility": false,
  "__v": 0
},
{
  "_id": {
    "$oid": "6732a8024a29b0893830b68a"
  },
  "place_id": "6732a8004a29b0893830b682",
  "toilet_name": "Toilet",
  "toilet_description": "Public toilet, 50 cents per use",
  "location": {
    "type": "Point",
    "coordinates": [
      -7.251176300000001,
      52.6504296
    ]
  },
  "type": "paid",
  "review_id": [],
  "price": "0.5 Euro",
  "toilet_paper_accessibility": false,
  "__v": 0
},
{
  "_id": {
    "$oid": "6732ab9d4a29b0893830b6df"
  },
  "place_id": "6732ab8b4a29b0893830b6d7",
  "toilet_name": "Dunnes Stores",
  "toilet_description": "Opening hours: 08:00 - 21:00",
  "location": {
    "type": "Point",
    "coordinates": [
      -7.252089000000001,
      52.652673
    ]
  },
  "type": "free",
  "review_id": [],
  "price": "free",
  "toilet_paper_accessibility": true,
  "__v": 0
},
{
  "_id": {
    "$oid": "6732b1bc4a29b0893830b7a2"
  },
  "place_id": "6732b0714a29b0893830b797",
  "toilet_name": "McDonald's",
  "toilet_description": "Free for customers",
  "location": {
    "type": "Point",
    "coordinates": [
      -7.226612799999999,
      52.6585382
    ]
  },
  "type": "free for customer",
  "review_id": [],
  "price": "free for customer",
  "toilet_paper_accessibility": false,
  "__v": 0
},
{
  "_id": {
    "$oid": "6732b1bc4a29b0893830b7a8"
  },
  "place_id": "6732b1b94a29b0893830b79a",
  "toilet_name": "The Yard Café",
  "toilet_description": "Free for customer only",
  "location": {
    "type": "Point",
    "coordinates": [
      -7.2534994,
      52.6533423
    ]
  },
  "type": "free for customer",
  "review_id": [],
  "price": "free for customer",
  "toilet_paper_accessibility": true,
  "__v": 0
},
{
  "_id": {
    "$oid": "6732b2454a29b0893830b803"
  },
  "place_id": "6732b2434a29b0893830b7fb",
  "toilet_name": "Cafe La Coco",
  "toilet_description": "Free for customers",
  "location": {
    "type": "Point",
    "coordinates": [
      -7.2516348,
      52.6497275
    ]
  },
  "type": "free for customer",
  "review_id": [],
  "price": "free for customer",
  "toilet_paper_accessibility": false,
  "__v": 0
},
{
  "_id": {
    "$oid": "6732b2fc4a29b0893830b860"
  },
  "place_id": "6732b2f54a29b0893830b858",
  "toilet_name": "The Black Cat Cafe Kilkenny",
  "toilet_description": "The toilet has a code lock and is located on the top floor of Intersport Elverys.",
  "location": {
    "type": "Point",
    "coordinates": [
      -7.25439,
      52.65423
    ]
  },
  "type": "free for customer",
  "review_id": [],
  "price": "free for customer",
  "toilet_paper_accessibility": false,
  "__v": 0
},
{
  "_id": {
    "$oid": "6732b5c14a29b0893830b8bf"
  },
  "place_id": "6732b5bf4a29b0893830b8b7",
  "toilet_name": "Kilkenny Design Centre",
  "toilet_description": "the toilet is located inside the restaurant or café within the center",
  "location": {
    "type": "Point",
    "coordinates": [
      -7.2489997,
      52.6497708
    ]
  },
  "type": "free",
  "review_id": [],
  "price": "free",
  "toilet_paper_accessibility": false,
  "__v": 0
},
{
  "_id": {
    "$oid": "6732b7244a29b0893830b920"
  },
  "place_id": "6732b7214a29b0893830b918",
  "toilet_name": "EUROSPAR",
  "toilet_description": "free for cutsomers",
  "location": {
    "type": "Point",
    "coordinates": [
      -8.3036175,
      51.8537252
    ]
  },
  "type": "free for customer",
  "review_id": [],
  "price": "free for customer",
  "toilet_paper_accessibility": false,
  "__v": 0
},
{
  "_id": {
    "$oid": "67547cf42f3f5b6b76b51648"
  },
  "place_id": "67547cf12f3f5b6b76b51640",
  "toilet_name": "The Gallery Bar & Restaurant",
  "toilet_description": "customer only",
  "location": {
    "type": "Point",
    "coordinates": [
      -8.6399166,
      52.1355116
    ]
  },
  "type": "free for customer",
  "review_id": [],
  "price": "free for customer",
  "toilet_paper_accessibility": true,
  "__v": 0
},
{
  "_id": {
    "$oid": "696646bfade8bdabed3ca787"
  },
  "place_id": "67547f722f3f5b6b76b516ae",
  "toilet_name": "Costa Coffee",
  "toilet_description": "customer only",
  "location": {
    "type": "Point",
    "coordinates": [
      -8.6417351,
      52.1376557
    ]
  },
  "type": "free for customer",
  "review_id": [],
  "price": "free for customer",
  "ratingAvg": 0,
  "ratingCount": 0,
  "toilet_paper_accessibility": true,
  "__v": 0
},
{
  "_id": {
    "$oid": "696646c1ade8bdabed3ca78d"
  },
  "place_id": "67547d9d2f3f5b6b76b516a8",
  "toilet_name": "The Arches Bar & Restaurant",
  "toilet_description": "customer only",
  "location": {
    "type": "Point",
    "coordinates": [
      -8.6454925,
      52.131936
    ]
  },
  "type": "free for customer",
  "review_id": [],
  "price": "free for customer",
  "ratingAvg": 0,
  "ratingCount": 0,
  "toilet_paper_accessibility": true,
  "__v": 0
},
{
  "_id": {
    "$oid": "696646c2ade8bdabed3ca793"
  },
  "place_id": "67547d4d2f3f5b6b76b516a5",
  "toilet_name": "Bella Cafe Mallow",
  "toilet_description": "for customer only",
  "location": {
    "type": "Point",
    "coordinates": [
      -8.6426234,
      52.1360232
    ]
  },
  "type": "free for customer",
  "review_id": [],
  "price": "free for customer",
  "ratingAvg": 0,
  "ratingCount": 0,
  "toilet_paper_accessibility": true,
  "__v": 0
},
{
  "_id": {
    "$oid": "696646c3ade8bdabed3ca799"
  },
  "place_id": "67547f532f3f5b6b76b516ab",
  "toilet_name": "Globe Cafe Mallow",
  "toilet_description": "customer only",
  "location": {
    "type": "Point",
    "coordinates": [
      -8.6464986,
      52.13760749999999
    ]
  },
  "type": "free for customer",
  "review_id": [],
  "price": "free for customer",
  "ratingAvg": 0,
  "ratingCount": 0,
  "toilet_paper_accessibility": true,
  "__v": 0
}]